[
    {
      "name": "Exki Porte de Namur",
	  "openHours": "Mon-Fri 07:30-22:00; Sat 09:00-22:00; Sun 09:00-20:00",
      "lat": 50.837937,
      "lon": 4.362154,
      "address": "Chaussée d'Ixelles 12, 1050 Ixelles",
      "type" : "Food & coffee",
      "power": {"available": false},
      "wifi": {"available": true},
      "comment": "Nice comfy room upstairs with usually some free tables"
    },
    {
      "name": "JAT",
	  "openHours": "Mon-Fri 08:00-18:00; Sat-Sun 09:00-19:00",
      "lat": 50.840567,
      "lon": 4.359992,
      "address": "Rue de Namur 28, 1000 Brussels",
      "type" : "Coffee shop",
      "power": {"available": false},
      "wifi": {"available": true},
      "comment": "Can be noisy and crowded at weekends"
    },
	{
      "name": "Natural Caffè Mont des Arts",
	  "openHours": "Mon-Fri 7.30am-7pm; Sat-Sun 11am-7pm",
      "lat": 50.844132,
      "lon": 4.358031,
      "address": "Mont des Arts 20, 1000 Brussels",
      "type" : "Coffee shop",
      "power": {"available": false},
      "wifi": {"available": true}
    },
	  {
      "name": "Natural Caffè Louise",
	  "openHours": "Mon-Fri 7.30am-7pm; Sat 9am-7pm; Sun 10am-6pm",
      "lat": 50.827487,
      "lon": 4.364330,
      "address": "196a Av. Louise 1050 Brussels",
      "type" : "Coffee shop",
      "power": {"available": false},
      "wifi": {"available": true}
    }
]
