[
    {
        "name": "San Francisco Public Library",
        "openHours": "Monday: 12am - 5pm, Tuesday - Thursday: 9am - 8pm, Friday: 12am - 6pm, Saturday: 10am - 6pm, Sunday: 12pm - 5pm",
        "lat": 38.6027557,
        "lon": -90.2524691,
        "address":  "100 Larkin St. - San Francisco, 94102",
        "type" : "Public library",
        "wifi": {"available": true},
        "power": {"available": true},
        "url": "http://sfpl.org/"
    },
    {
        "name": "Panera Bread",
        "openHours": "Monday - Sunday: 6:30am - 9pm",
        "lat": 37.7757022,
        "lon": -122.3936884,
        "address":  "301 King St, San Francisco, CA 94158",
        "type" : "Bread shop",
        "wifi": {"available": true},
        "power": {"available": true},
        "url": "https://www.panerabread.com/"
    },
    {
        "name": "The Metreon",
        "openHours": "Monday - Sunday: 10:30am - 9pm",
        "lat": 37.78418,
        "lon": -122.40361,
        "address":  "135 4th Street, San Francisco, CA 94103",
        "type" : "Urban mall",
        "wifi": {"available": true},
        "power": {"available": false},
        "url": "http://www.cityviewmetreon.com/"
    },
    {
        "name": "Beacon Coffee & Pantry",
        "openHours": "Monday - Sunday: 7am - 6pm",
        "lat": 37.8022408,
        "lon": -122.4133416,
        "address":  "805 Columbus Avenue - San Francisco, CA 94133",
        "type" : "Coffee shop",
        "wifi": {"available": true},
        "power": {"available": false},
        "url": "http://www.beacon-sf.com/"
    },
    {
        "name": "Peets Coffee & Tea",
        "openHours": "Monday - Sunday: 5am - 8:30pm",
        "lat": 37.764842,
        "lon": -122.431898,
        "address":  "2257 Market Street - San Francisco, CA 94114",
        "type" : "Coffee shop",
        "wifi": {"available": true},
        "power": {"available": true},
        "url": "https://www.peets.com/"
    },
    {
        "name": "Union Square",
        "openHours": "24/7",
        "lat": 37.7879717,
        "lon": -122.4075456,
        "address":  "333 Post Street - San Francisco, CA 94108",
        "type" : "Public square",
        "wifi": {"available": true},
        "power": {"available": false},
        "url": "http://en.wikipedia.org/wiki/Union_Square,_San_Francisco"
    },
    {
        "name": " Peetâ€™s Coffee & Tea ",
        "openHours": "5am - 6:30pm",
        "lat": 37.7911186,
        "lon": -122.4025815,
        "address":  "217 Montgomery Street - San Francisco, CA 94104",
        "type" : "Coffee shop",
        "wifi": {"available": true},
        "power": {"available": true},
        "url": "https://www.peets.com/"
    }
]
